{
    "features": [
        {
            "geometry": {
                "coordinates": [
                    2.440439978057246,
                    48.844456394569114
                ],
                "type": "Point"
            },
            "properties": {
                "id": "2035-2154",
                "line": "1",
                "marker-color": "#FFBE00",
                "marker-symbol": "rail-metro",
                "name": "Chateau de Vincennes"
            },
            "type": "Feature"
        },
        {
            "geometry": {
                "coordinates": [
                    2.429205166348,
                    48.84547070758355
                ],
                "type": "Point"
            },
            "properties": {
                "id": "2067-2116",
                "line": "1",
                "marker-color": "#FFBE00",
                "marker-symbol": "rail-metro",
                "name": "Berault"
            },
            "type": "Feature"
        },
        {
            "geometry": {
                "coordinates": [
                    2.41947990037451,
                    48.84635698889295
                ],
                "type": "Point"
            },
            "properties": {
                "id": "1725-2470",
                "line": "1",
                "marker-color": "#FFBE00",
                "marker-symbol": "rail-metro",
                "name": "Saint-Mande"
            },
            "type": "Feature"
        },
        {
            "geometry": {
                "coordinates": [
                    2.410140367974107,
                    48.8471584794021
                ],
                "type": "Point"
            },
            "properties": {
                "id": "1751-2429",
                "line": "1",
                "marker-color": "#FFBE00",
                "marker-symbol": "rail-metro",
                "name": "Porte de Vincennes"
            },
            "type": "Feature"
        },
        {
            "geometry": {
                "coordinates": [
                    2.39506230542588,
                    48.84847428597437
                ],
                "type": "Point"
            },
            "properties": {
                "id": "1832-2371",
                "line": "1",
                "marker-color": "#FFBE00",
                "marker-symbol": "rail-metro",
                "name": "Nation"
            },
            "type": "Feature"
        },
        {
            "geometry": {
                "coordinates": [
                    2.386341706352172,
                    48.84730378614119
                ],
                "type": "Point"
            },
            "properties": {
                "id": "1698-2443",
                "line": "1",
                "marker-color": "#FFBE00",
                "marker-symbol": "rail-metro",
                "name": "Reuilly-Diderot"
            },
            "type": "Feature"
        },
        {
            "geometry": {
                "coordinates": [
                    2.373014219940096,
                    48.84398558201753
                ],
                "type": "Point"
            },
            "properties": {
                "id": "1955-2210",
                "line": "1",
                "marker-color": "#FFBE00",
                "marker-symbol": "rail-metro",
                "name": "Gare de Lyon"
            },
            "type": "Feature"
        },
        {
            "geometry": {
                "coordinates": [
                    2.369320584925386,
                    48.852479422836296
                ],
                "type": "Point"
            },
            "properties": {
                "id": "2062-2111",
                "line": "1",
                "marker-color": "#FFBE00",
                "marker-symbol": "rail-metro",
                "name": "Bastille"
            },
            "type": "Feature"
        },
        {
            "geometry": {
                "coordinates": [
                    2.360956488661,
                    48.855236252795095
                ],
                "type": "Point"
            },
            "properties": {
                "id": "1642-2522",
                "line": "1",
                "marker-color": "#FFBE00",
                "marker-symbol": "rail-metro",
                "name": "Saint-Paul (Le Marais)"
            },
            "type": "Feature"
        },
        {
            "geometry": {
                "coordinates": [
                    2.351577562994996,
                    48.85747798252934
                ],
                "type": "Point"
            },
            "properties": {
                "id": "1892-2288",
                "line": "1",
                "marker-color": "#FFBE00",
                "marker-symbol": "rail-metro",
                "name": "Hotel de Ville"
            },
            "type": "Feature"
        },
        {
            "geometry": {
                "coordinates": [
                    2.347305852747763,
                    48.85879919807379
                ],
                "type": "Point"
            },
            "properties": {
                "id": "2036-2155",
                "line": "1",
                "marker-color": "#FFBE00",
                "marker-symbol": "rail-metro",
                "name": "Chatelet"
            },
            "type": "Feature"
        },
        {
            "geometry": {
                "coordinates": [
                    2.341108591634067,
                    48.8608062912721
                ],
                "type": "Point"
            },
            "properties": {
                "id": "1864-2331",
                "line": "1",
                "marker-color": "#FFBE00",
                "marker-symbol": "rail-metro",
                "name": "Louvre-Rivoli"
            },
            "type": "Feature"
        },
        {
            "geometry": {
                "coordinates": [
                    2.336878397596706,
                    48.862829672789964
                ],
                "type": "Point"
            },
            "properties": {
                "id": "1773-2383",
                "line": "1",
                "marker-color": "#FFBE00",
                "marker-symbol": "rail-metro",
                "name": "Palais-Royal (Musee du Louvre)"
            },
            "type": "Feature"
        },
        {
            "geometry": {
                "coordinates": [
                    2.330129877112861,
                    48.86434377873391
                ],
                "type": "Point"
            },
            "properties": {
                "id": "1688-2498",
                "line": "1",
                "marker-color": "#FFBE00",
                "marker-symbol": "rail-metro",
                "name": "Tuileries"
            },
            "type": "Feature"
        },
        {
            "geometry": {
                "coordinates": [
                    2.322943412243542,
                    48.866285804583875
                ],
                "type": "Point"
            },
            "properties": {
                "id": "1980-2170",
                "line": "1",
                "marker-color": "#FFBE00",
                "marker-symbol": "rail-metro",
                "name": "Concorde"
            },
            "type": "Feature"
        },
        {
            "geometry": {
                "coordinates": [
                    2.313545549946741,
                    48.86790534489709
                ],
                "type": "Point"
            },
            "properties": {
                "id": "2083-2544",
                "line": "1",
                "marker-color": "#FFBE00",
                "marker-symbol": "rail-metro",
                "name": "Champs-Elysees-Clemenceau"
            },
            "type": "Feature"
        },
        {
            "geometry": {
                "coordinates": [
                    2.309505157337887,
                    48.86869984735294
                ],
                "type": "Point"
            },
            "properties": {
                "id": "1945-2200",
                "line": "1",
                "marker-color": "#FFBE00",
                "marker-symbol": "rail-metro",
                "name": "Franklin-Roosevelt"
            },
            "type": "Feature"
        },
        {
            "geometry": {
                "coordinates": [
                    2.300560451248797,
                    48.87202380950043
                ],
                "type": "Point"
            },
            "properties": {
                "id": "1961-2216",
                "line": "1",
                "marker-color": "#FFBE00",
                "marker-symbol": "rail-metro",
                "name": "George V"
            },
            "type": "Feature"
        },
        {
            "geometry": {
                "coordinates": [
                    2.295567369745454,
                    48.874613927042155
                ],
                "type": "Point"
            },
            "properties": {
                "id": "2028-2147",
                "line": "1",
                "marker-color": "#FFBE00",
                "marker-symbol": "rail-metro",
                "name": "Charles de Gaulle-Etoile"
            },
            "type": "Feature"
        },
        {
            "geometry": {
                "coordinates": [
                    2.289322589613774,
                    48.87559404986667
                ],
                "type": "Point"
            },
            "properties": {
                "id": "2048-2098",
                "line": "1",
                "marker-color": "#FFBE00",
                "marker-symbol": "rail-metro",
                "name": "Argentine"
            },
            "type": "Feature"
        },
        {
            "geometry": {
                "coordinates": [
                    2.283162242230229,
                    48.87755125180425
                ],
                "type": "Point"
            },
            "properties": {
                "id": "1755-2433",
                "line": "1",
                "marker-color": "#FFBE00",
                "marker-symbol": "rail-metro",
                "name": "Porte Maillot"
            },
            "type": "Feature"
        },
        {
            "geometry": {
                "coordinates": [
                    2.271686721050983,
                    48.88119152058607
                ],
                "type": "Point"
            },
            "properties": {
                "id": "1856-2323",
                "line": "1",
                "marker-color": "#FFBE00",
                "marker-symbol": "rail-metro",
                "name": "Les Sablons (Jardin d'acclimatation)"
            },
            "type": "Feature"
        },
        {
            "geometry": {
                "coordinates": [
                    2.260515077888117,
                    48.88470820132253
                ],
                "type": "Point"
            },
            "properties": {
                "id": "1803-2342",
                "line": "1",
                "marker-color": "#FFBE00",
                "marker-symbol": "rail-metro",
                "name": "Pont de Neuilly"
            },
            "type": "Feature"
        },
        {
            "geometry": {
                "coordinates": [
                    2.247932435324862,
                    48.88863121777118
                ],
                "type": "Point"
            },
            "properties": {
                "id": "1933-2258",
                "line": "1",
                "marker-color": "#FFBE00",
                "marker-symbol": "rail-metro",
                "name": "Esplanade de la Defense"
            },
            "type": "Feature"
        },
        {
            "geometry": {
                "coordinates": [
                    2.237018056395014,
                    48.8921870764495
                ],
                "type": "Point"
            },
            "properties": {
                "id": "1887-2283",
                "line": "1",
                "marker-color": "#FFBE00",
                "marker-symbol": "rail-metro",
                "name": "La Defense (Grande Arche)"
            },
            "type": "Feature"
        },
        {
            "geometry": {
                "coordinates": [
                    2.39506230542588,
                    48.84847428597437
                ],
                "type": "Point"
            },
            "properties": {
                "id": "1833-2338",
                "line": "2",
                "marker-color": "#0055C8",
                "marker-symbol": "rail-metro",
                "name": "Nation"
            },
            "type": "Feature"
        },
        {
            "geometry": {
                "coordinates": [
                    2.398302344267162,
                    48.85151027816436
                ],
                "type": "Point"
            },
            "properties": {
                "id": "2058-2107",
                "line": "2",
                "marker-color": "#0055C8",
                "marker-symbol": "rail-metro",
                "name": "Avron"
            },
            "type": "Feature"
        },
        {
            "geometry": {
                "coordinates": [
                    2.394561944560314,
                    48.85637735718154
                ],
                "type": "Point"
            },
            "properties": {
                "id": "2041-2160",
                "line": "2",
                "marker-color": "#0055C8",
                "marker-symbol": "rail-metro",
                "name": "Alexandre-Dumas"
            },
            "type": "Feature"
        },
        {
            "geometry": {
                "coordinates": [
                    2.389729852353504,
                    48.85846654943374
                ],
                "type": "Point"
            },
            "properties": {
                "id": "1788-2398",
                "line": "2",
                "marker-color": "#0055C8",
                "marker-symbol": "rail-metro",
                "name": "Philippe Auguste"
            },
            "type": "Feature"
        },
        {
            "geometry": {
                "coordinates": [
                    2.387607288151709,
                    48.86265401909355
                ],
                "type": "Point"
            },
            "properties": {
                "id": "1784-2394",
                "line": "2",
                "marker-color": "#0055C8",
                "marker-symbol": "rail-metro",
                "name": "Pere-Lachaise"
            },
            "type": "Feature"
        },
        {
            "geometry": {
                "coordinates": [
                    2.383383250455203,
                    48.86680003509802
                ],
                "type": "Point"
            },
            "properties": {
                "id": "1812-2351",
                "line": "2",
                "marker-color": "#0055C8",
                "marker-symbol": "rail-metro",
                "name": "Menilmontant"
            },
            "type": "Feature"
        },
        {
            "geometry": {
                "coordinates": [
                    2.380542585989343,
                    48.86909116292499
                ],
                "type": "Point"
            },
            "properties": {
                "id": "2079-2128",
                "line": "2",
                "marker-color": "#0055C8",
                "marker-symbol": "rail-metro",
                "name": "Couronnes"
            },
            "type": "Feature"
        },
        {
            "geometry": {
                "coordinates": [
                    2.376702144728945,
                    48.872310113783094
                ],
                "type": "Point"
            },
            "properties": {
                "id": "2087-2548",
                "line": "2",
                "marker-color": "#0055C8",
                "marker-symbol": "rail-metro",
                "name": "Belleville"
            },
            "type": "Feature"
        },
        {
            "geometry": {
                "coordinates": [
                    2.370811395312745,
                    48.87761018741785
                ],
                "type": "Point"
            },
            "properties": {
                "id": "1978-2168",
                "line": "2",
                "marker-color": "#0055C8",
                "marker-symbol": "rail-metro",
                "name": "Colonel Fabien"
            },
            "type": "Feature"
        },
        {
            "geometry": {
                "coordinates": [
                    2.370262126660263,
                    48.881498595910074
                ],
                "type": "Point"
            },
            "properties": {
                "id": "1900-2296",
                "line": "2",
                "marker-color": "#0055C8",
                "marker-symbol": "rail-metro",
                "name": "Jaures"
            },
            "type": "Feature"
        },
        {
            "geometry": {
                "coordinates": [
                    2.36939198436133,
                    48.884385145353036
                ],
                "type": "Point"
            },
            "properties": {
                "id": "1674-2484",
                "line": "2",
                "marker-color": "#0055C8",
                "marker-symbol": "rail-metro",
                "name": "Stalingrad"
            },
            "type": "Feature"
        },
        {
            "geometry": {
                "coordinates": [
                    2.360491318526145,
                    48.88439879515334
                ],
                "type": "Point"
            },
            "properties": {
                "id": "1910-2235",
                "line": "2",
                "marker-color": "#0055C8",
                "marker-symbol": "rail-metro",
                "name": "La Chapelle"
            },
            "type": "Feature"
        },
        {
            "geometry": {
                "coordinates": [
                    2.349774443646268,
                    48.88343618805934
                ],
                "type": "Point"
            },
            "properties": {
                "id": "2086-2547",
                "line": "2",
                "marker-color": "#0055C8",
                "marker-symbol": "rail-metro",
                "name": "Barbes-Rochechouart"
            },
            "type": "Feature"
        },
        {
            "geometry": {
                "coordinates": [
                    2.344130633722553,
                    48.88286864756839
                ],
                "type": "Point"
            },
            "properties": {
                "id": "2046-2096",
                "line": "2",
                "marker-color": "#0055C8",
                "marker-symbol": "rail-metro",
                "name": "Anvers"
            },
            "type": "Feature"
        },
        {
            "geometry": {
                "coordinates": [
                    2.337081682514974,
                    48.882519385636314
                ],
                "type": "Point"
            },
            "properties": {
                "id": "1791-2401",
                "line": "2",
                "marker-color": "#0055C8",
                "marker-symbol": "rail-metro",
                "name": "Pigalle"
            },
            "type": "Feature"
        },
        {
            "geometry": {
                "coordinates": [
                    2.331926590885041,
                    48.88395857351673
                ],
                "type": "Point"
            },
            "properties": {
                "id": "2071-2120",
                "line": "2",
                "marker-color": "#0055C8",
                "marker-symbol": "rail-metro",
                "name": "Blanche"
            },
            "type": "Feature"
        },
        {
            "geometry": {
                "coordinates": [
                    2.327839556114741,
                    48.88361499223493
                ],
                "type": "Point"
            },
            "properties": {
                "id": "1795-2405",
                "line": "2",
                "marker-color": "#0055C8",
                "marker-symbol": "rail-metro",
                "name": "Place de Clichy"
            },
            "type": "Feature"
        },
        {
            "geometry": {
                "coordinates": [
                    2.321274926766349,
                    48.88222690081934
                ],
                "type": "Point"
            },
            "properties": {
                "id": "1707-2452",
                "line": "2",
                "marker-color": "#0055C8",
                "marker-symbol": "rail-metro",
                "name": "Rome"
            },
            "type": "Feature"
        },
        {
            "geometry": {
                "coordinates": [
                    2.315176626220464,
                    48.881150028474686
                ],
                "type": "Point"
            },
            "properties": {
                "id": "1629-2509",
                "line": "2",
                "marker-color": "#0055C8",
                "marker-symbol": "rail-metro",
                "name": "Villiers"
            },
            "type": "Feature"
        },
        {
            "geometry": {
                "coordinates": [
                    2.309451167991542,
                    48.8804494561385
                ],
                "type": "Point"
            },
            "properties": {
                "id": "1822-2361",
                "line": "2",
                "marker-color": "#0055C8",
                "marker-symbol": "rail-metro",
                "name": "Monceau"
            },
            "type": "Feature"
        },
        {
            "geometry": {
                "coordinates": [
                    2.303528725370108,
                    48.879214134245586
                ],
                "type": "Point"
            },
            "properties": {
                "id": "1989-2179",
                "line": "2",
                "marker-color": "#0055C8",
                "marker-symbol": "rail-metro",
                "name": "Courcelles"
            },
            "type": "Feature"
        },
        {
            "geometry": {
                "coordinates": [
                    2.298310375124943,
                    48.877972701427545
                ],
                "type": "Point"
            },
            "properties": {
                "id": "1684-2494",
                "line": "2",
                "marker-color": "#0055C8",
                "marker-symbol": "rail-metro",
                "name": "Ternes"
            },
            "type": "Feature"
        },
        {
            "geometry": {
                "coordinates": [
                    2.295567369745454,
                    48.874613927042155
                ],
                "type": "Point"
            },
            "properties": {
                "id": "2029-2148",
                "line": "2",
                "marker-color": "#0055C8",
                "marker-symbol": "rail-metro",
                "name": "Charles de Gaulle-Etoile"
            },
            "type": "Feature"
        },
        {
            "geometry": {
                "coordinates": [
                    2.285335094686169,
                    48.86979855646068
                ],
                "type": "Point"
            },
            "properties": {
                "id": "1694-2504",
                "line": "2",
                "marker-color": "#0055C8",
                "marker-symbol": "rail-metro",
                "name": "Victor Hugo"
            },
            "type": "Feature"
        },
        {
            "geometry": {
                "coordinates": [
                    2.277083017052586,
                    48.87146657812765
                ],
                "type": "Point"
            },
            "properties": {
                "id": "1736-2414",
                "line": "2",
                "marker-color": "#0055C8",
                "marker-symbol": "rail-metro",
                "name": "Porte Dauphine (Marechal de Lattre de Tassigny)"
            },
            "type": "Feature"
        },
        {
            "geometry": {
                "coordinates": [
                    2.41669727285771,
                    48.865335317260985
                ],
                "type": "Point"
            },
            "properties": {
                "id": "1949-2204",
                "line": "3",
                "marker-color": "#6E6E00",
                "marker-symbol": "rail-metro",
                "name": "Gallieni (Parc de Bagnolet)"
            },
            "type": "Feature"
        },
        {
            "geometry": {
                "coordinates": [
                    2.408031037075815,
                    48.864600373375616
                ],
                "type": "Point"
            },
            "properties": {
                "id": "1737-2415",
                "line": "3",
                "marker-color": "#6E6E00",
                "marker-symbol": "rail-metro",
                "name": "Porte de Bagnolet"
            },
            "type": "Feature"
        },
        {
            "geometry": {
                "coordinates": [
                    2.398746593442592,
                    48.86516343488148
                ],
                "type": "Point"
            },
            "properties": {
                "id": "1950-2205",
                "line": "3",
                "marker-color": "#6E6E00",
                "marker-symbol": "rail-metro",
                "name": "Gambetta"
            },
            "type": "Feature"
        },
        {
            "geometry": {
                "coordinates": [
                    2.387607288151709,
                    48.86265401909355
                ],
                "type": "Point"
            },
            "properties": {
                "id": "1785-2395",
                "line": "3",
                "marker-color": "#6E6E00",
                "marker-symbol": "rail-metro",
                "name": "Pere-Lachaise"
            },
            "type": "Feature"
        },
        {
            "geometry": {
                "coordinates": [
                    2.380797986183677,
                    48.864086574750985
                ],
                "type": "Point"
            },
            "properties": {
                "id": "1728-2471",
                "line": "3",
                "marker-color": "#6E6E00",
                "marker-symbol": "rail-metro",
                "name": "Rue Saint-Maur"
            },
            "type": "Feature"
        },
        {
            "geometry": {
                "coordinates": [
                    2.374581969996412,
                    48.865253786054325
                ],
                "type": "Point"
            },
            "properties": {
                "id": "1779-2389",
                "line": "3",
                "marker-color": "#6E6E00",
                "marker-symbol": "rail-metro",
                "name": "Parmentier"
            },
            "type": "Feature"
        },
        {
            "geometry": {
                "coordinates": [
                    2.363826143977408,
                    48.86750342377884
                ],
                "type": "Point"
            },
            "properties": {
                "id": "1766-2376",
                "line": "3",
                "marker-color": "#6E6E00",
                "marker-symbol": "rail-metro",
                "name": "Republique"
            },
            "type": "Feature"
        },
        {
            "geometry": {
                "coordinates": [
                    2.361541532068171,
                    48.86668268024132
                ],
                "type": "Point"
            },
            "properties": {
                "id": "1683-2493",
                "line": "3",
                "marker-color": "#6E6E00",
                "marker-symbol": "rail-metro",
                "name": "Temple"
            },
            "type": "Feature"
        },
        {
            "geometry": {
                "coordinates": [
                    2.356729869173701,
                    48.865322711678054
                ],
                "type": "Point"
            },
            "properties": {
                "id": "2050-2099",
                "line": "3",
                "marker-color": "#6E6E00",
                "marker-symbol": "rail-metro",
                "name": "Arts-et-Metiers"
            },
            "type": "Feature"
        },
        {
            "geometry": {
                "coordinates": [
                    2.35206831805007,
                    48.866340299288545
                ],
                "type": "Point"
            },
            "properties": {
                "id": "1765-2375",
                "line": "3",
                "marker-color": "#6E6E00",
                "marker-symbol": "rail-metro",
                "name": "Reaumur-Sebastopol"
            },
            "type": "Feature"
        },
        {
            "geometry": {
                "coordinates": [
                    2.347516213278753,
                    48.86730947497152
                ],
                "type": "Point"
            },
            "properties": {
                "id": "1662-2542",
                "line": "3",
                "marker-color": "#6E6E00",
                "marker-symbol": "rail-metro",
                "name": "Sentier"
            },
            "type": "Feature"
        },
        {
            "geometry": {
                "coordinates": [
                    2.340720723674097,
                    48.868695977842876
                ],
                "type": "Point"
            },
            "properties": {
                "id": "2007-2196",
                "line": "3",
                "marker-color": "#6E6E00",
                "marker-symbol": "rail-metro",
                "name": "Bourse"
            },
            "type": "Feature"
        },
        {
            "geometry": {
                "coordinates": [
                    2.336218847521674,
                    48.869585243484515
                ],
                "type": "Point"
            },
            "properties": {
                "id": "1760-2438",
                "line": "3",
                "marker-color": "#6E6E00",
                "marker-symbol": "rail-metro",
                "name": "Quatre Septembre"
            },
            "type": "Feature"
        },
        {
            "geometry": {
                "coordinates": [
                    2.331989522683248,
                    48.8709917839485
                ],
                "type": "Point"
            },
            "properties": {
                "id": "1846-2313",
                "line": "3",
                "marker-color": "#6E6E00",
                "marker-symbol": "rail-metro",
                "name": "Opera"
            },
            "type": "Feature"
        },
        {
            "geometry": {
                "coordinates": [
                    2.327695409630174,
                    48.87371340670774
                ],
                "type": "Point"
            },
            "properties": {
                "id": "1889-2285",
                "line": "3",
                "marker-color": "#6E6E00",
                "marker-symbol": "rail-metro",
                "name": "Havre-Caumartin"
            },
            "type": "Feature"
        },
        {
            "geometry": {
                "coordinates": [
                    2.324574810293918,
                    48.87500639805501
                ],
                "type": "Point"
            },
            "properties": {
                "id": "1722-2467",
                "line": "3",
                "marker-color": "#6E6E00",
                "marker-symbol": "rail-metro",
                "name": "Saint-Lazare"
            },
            "type": "Feature"
        },
        {
            "geometry": {
                "coordinates": [
                    2.322265213118896,
                    48.87877036848683
                ],
                "type": "Point"
            },
            "properties": {
                "id": "1935-2260",
                "line": "3",
                "marker-color": "#6E6E00",
                "marker-symbol": "rail-metro",
                "name": "Europe"
            },
            "type": "Feature"
        },
        {
            "geometry": {
                "coordinates": [
                    2.315176626220464,
                    48.881150028474686
                ],
                "type": "Point"
            },
            "properties": {
                "id": "1630-2510",
                "line": "3",
                "marker-color": "#6E6E00",
                "marker-symbol": "rail-metro",
                "name": "Villiers"
            },
            "type": "Feature"
        },
        {
            "geometry": {
                "coordinates": [
                    2.309052264550479,
                    48.88289191745413
                ],
                "type": "Point"
            },
            "properties": {
                "id": "1881-2277",
                "line": "3",
                "marker-color": "#6E6E00",
                "marker-symbol": "rail-metro",
                "name": "Malesherbes"
            },
            "type": "Feature"
        },
        {
            "geometry": {
                "coordinates": [
                    2.304674440528396,
                    48.883809201233376
                ],
                "type": "Point"
            },
            "properties": {
                "id": "1634-2514",
                "line": "3",
                "marker-color": "#6E6E00",
                "marker-symbol": "rail-metro",
                "name": "Wagram"
            },
            "type": "Feature"
        },
        {
            "geometry": {
                "coordinates": [
                    2.297724346480178,
                    48.88489625515051
                ],
                "type": "Point"
            },
            "properties": {
                "id": "1786-2396",
                "line": "3",
                "marker-color": "#6E6E00",
                "marker-symbol": "rail-metro",
                "name": "Pereire"
            },
            "type": "Feature"
        },
        {
            "geometry": {
                "coordinates": [
                    2.292582314102913,
                    48.885793105231
                ],
                "type": "Point"
            },
            "properties": {
                "id": "1738-2416",
                "line": "3",
                "marker-color": "#6E6E00",
                "marker-symbol": "rail-metro",
                "name": "Porte de Champerret"
            },
            "type": "Feature"
        },
        {
            "geometry": {
                "coordinates": [
                    2.288083633048504,
                    48.88870601977514
                ],
                "type": "Point"
            },
            "properties": {
                "id": "1862-2329",
                "line": "3",
                "marker-color": "#6E6E00",
                "marker-symbol": "rail-metro",
                "name": "Louise Michel"
            },
            "type": "Feature"
        },
        {
            "geometry": {
                "coordinates": [
                    2.285009502746195,
                    48.89208278597479
                ],
                "type": "Point"
            },
            "properties": {
                "id": "2044-2163",
                "line": "3",
                "marker-color": "#6E6E00",
                "marker-symbol": "rail-metro",
                "name": "Anatole-France"
            },
            "type": "Feature"
        },
        {
            "geometry": {
                "coordinates": [
                    2.279809586693102,
                    48.89782106711132
                ],
                "type": "Point"
            },
            "properties": {
                "id": "1802-2341",
                "line": "3",
                "marker-color": "#6E6E00",
                "marker-symbol": "rail-metro",
                "name": "Pont de Levallois-Becon"
            },
            "type": "Feature"
        },
        {
            "geometry": {
                "coordinates": [
                    2.406480156998486,
                    48.87717481930547
                ],
                "type": "Point"
            },
            "properties": {
                "id": "1752-2430",
                "line": "3b",
                "marker-color": "#82C8E6",
                "marker-symbol": "rail-metro",
                "name": "Porte des Lilas"
            },
            "type": "Feature"
        },
        {
            "geometry": {
                "coordinates": [
                    2.404514942379104,
                    48.872101442131545
                ],
                "type": "Point"
            },
            "properties": {
                "id": "1718-2463",
                "line": "3b",
                "marker-color": "#82C8E6",
                "marker-symbol": "rail-metro",
                "name": "Saint-Fargeau"
            },
            "type": "Feature"
        },
        {
            "geometry": {
                "coordinates": [
                    2.401561712742541,
                    48.86844016327547
                ],
                "type": "Point"
            },
            "properties": {
                "id": "1783-2393",
                "line": "3b",
                "marker-color": "#82C8E6",
                "marker-symbol": "rail-metro",
                "name": "Pelleport"
            },
            "type": "Feature"
        },
        {
            "geometry": {
                "coordinates": [
                    2.398746593442592,
                    48.86516343488148
                ],
                "type": "Point"
            },
            "properties": {
                "id": "1659-2539",
                "line": "3b",
                "marker-color": "#82C8E6",
                "marker-symbol": "rail-metro",
                "name": "Gambetta"
            },
            "type": "Feature"
        },
        {
            "geometry": {
                "coordinates": [
                    2.344847748752398,
                    48.89740222289809
                ],
                "type": "Point"
            },
            "properties": {
                "id": "1742-2420",
                "line": "4",
                "marker-color": "#v",
                "marker-symbol": "rail-metro",
                "name": "Porte de Clignancourt"
            },
            "type": "Feature"
        },
        {
            "geometry": {
                "coordinates": [
                    2.347765501718976,
                    48.89394138802911
                ],
                "type": "Point"
            },
            "properties": {
                "id": "1668-2478",
                "line": "4",
                "marker-color": "#v",
                "marker-symbol": "rail-metro",
                "name": "Simplon"
            },
            "type": "Feature"
        },
        {
            "geometry": {
                "coordinates": [
                    2.349738407022142,
                    48.89141683421295
                ],
                "type": "Point"
            },
            "properties": {
                "id": "1655-2535",
                "line": "4",
                "marker-color": "#v",
                "marker-symbol": "rail-metro",
                "name": "Marcadet-Poissonniers"
            },
            "type": "Feature"
        },
        {
            "geometry": {
                "coordinates": [
                    2.349694082202741,
                    48.887374910553596
                ],
                "type": "Point"
            },
            "properties": {
                "id": "2033-2152",
                "line": "4",
                "marker-color": "#v",
                "marker-symbol": "rail-metro",
                "name": "Chateau Rouge"
            },
            "type": "Feature"
        },
        {
            "geometry": {
                "coordinates": [
                    2.349774443646268,
                    48.88343618805934
                ],
                "type": "Point"
            },
            "properties": {
                "id": "2061-2110",
                "line": "4",
                "marker-color": "#v",
                "marker-symbol": "rail-metro",
                "name": "Barbes-Rochechouart"
            },
            "type": "Feature"
        },
        {
            "geometry": {
                "coordinates": [
                    2.357459346588717,
                    48.87985014251205
                ],
                "type": "Point"
            },
            "properties": {
                "id": "1957-2212",
                "line": "4",
                "marker-color": "#v",
                "marker-symbol": "rail-metro",
                "name": "Gare du Nord"
            },
            "type": "Feature"
        },
        {
            "geometry": {
                "coordinates": [
                    2.357880771925327,
                    48.8759910648072
                ],
                "type": "Point"
            },
            "properties": {
                "id": "1953-2208",
                "line": "4",
                "marker-color": "#v",
                "marker-symbol": "rail-metro",
                "name": "Gare de l'Est (Verdun)"
            },
            "type": "Feature"
        },
        {
            "geometry": {
                "coordinates": [
                    2.356044907672176,
                    48.872424914488995
                ],
                "type": "Point"
            },
            "properties": {
                "id": "2034-2153",
                "line": "4",
                "marker-color": "#v",
                "marker-symbol": "rail-metro",
                "name": "Chateau d'Eau"
            },
            "type": "Feature"
        },
        {
            "geometry": {
                "coordinates": [
                    2.354603790697162,
                    48.8692241716524
                ],
                "type": "Point"
            },
            "properties": {
                "id": "1677-2487",
                "line": "4",
                "marker-color": "#v",
                "marker-symbol": "rail-metro",
                "name": "Strasbourg-Saint-Denis"
            },
            "type": "Feature"
        },
        {
            "geometry": {
                "coordinates": [
                    2.35206831805007,
                    48.866340299288545
                ],
                "type": "Point"
            },
            "properties": {
                "id": "1764-2374",
                "line": "4",
                "marker-color": "#v",
                "marker-symbol": "rail-metro",
                "name": "Reaumur-Sebastopol"
            },
            "type": "Feature"
        },
        {
            "geometry": {
                "coordinates": [
                    2.348880652588476,
                    48.863807437781254
                ],
                "type": "Point"
            },
            "properties": {
                "id": "1934-2259",
                "line": "4",
                "marker-color": "#v",
                "marker-symbol": "rail-metro",
                "name": "Etienne Marcel"
            },
            "type": "Feature"
        },
        {
            "geometry": {
                "coordinates": [
                    2.345673828222722,
                    48.8623162786956
                ],
                "type": "Point"
            },
            "properties": {
                "id": "1855-2322",
                "line": "4",
                "marker-color": "#v",
                "marker-symbol": "rail-metro",
                "name": "Les Halles"
            },
            "type": "Feature"
        },
        {
            "geometry": {
                "coordinates": [
                    2.347305852747763,
                    48.85879919807379
                ],
                "type": "Point"
            },
            "properties": {
                "id": "1964-2219",
                "line": "4",
                "marker-color": "#v",
                "marker-symbol": "rail-metro",
                "name": "Chatelet"
            },
            "type": "Feature"
        },
        {
            "geometry": {
                "coordinates": [
                    2.347321315727239,
                    48.854936376552644
                ],
                "type": "Point"
            },
            "properties": {
                "id": "1975-2230",
                "line": "4",
                "marker-color": "#v",
                "marker-symbol": "rail-metro",
                "name": "Cite"
            },
            "type": "Feature"
        },
        {
            "geometry": {
                "coordinates": [
                    2.343285978923924,
                    48.853167984890604
                ],
                "type": "Point"
            },
            "properties": {
                "id": "1729-2472",
                "line": "4",
                "marker-color": "#v",
                "marker-symbol": "rail-metro",
                "name": "Saint-Michel"
            },
            "type": "Feature"
        },
        {
            "geometry": {
                "coordinates": [
                    2.339727781593096,
                    48.85230076309423
                ],
                "type": "Point"
            },
            "properties": {
                "id": "1845-2312",
                "line": "4",
                "marker-color": "#v",
                "marker-symbol": "rail-metro",
                "name": "Odeon"
            },
            "type": "Feature"
        },
        {
            "geometry": {
                "coordinates": [
                    2.333776136855683,
                    48.85371893399261
                ],
                "type": "Point"
            },
            "properties": {
                "id": "1721-2466",
                "line": "4",
                "marker-color": "#v",
                "marker-symbol": "rail-metro",
                "name": "Saint-Germain des Pres"
            },
            "type": "Feature"
        },
        {
            "geometry": {
                "coordinates": [
                    2.331256291370013,
                    48.851672245619895
                ],
                "type": "Point"
            },
            "properties": {
                "id": "1733-2411",
                "line": "4",
                "marker-color": "#v",
                "marker-symbol": "rail-metro",
                "name": "Saint-Sulpice"
            },
            "type": "Feature"
        },
        {
            "geometry": {
                "coordinates": [
                    2.326792785039299,
                    48.84687823795213
                ],
                "type": "Point"
            },
            "properties": {
                "id": "1731-2442",
                "line": "4",
                "marker-color": "#v",
                "marker-symbol": "rail-metro",
                "name": "Saint-Placide"
            },
            "type": "Feature"
        },
        {
            "geometry": {
                "coordinates": [
                    2.324397012397453,
                    48.84378130483655
                ],
                "type": "Point"
            },
            "properties": {
                "id": "1824-2363",
                "line": "4",
                "marker-color": "#v",
                "marker-symbol": "rail-metro",
                "name": "Montparnasse-Bienvenue"
            },
            "type": "Feature"
        },
        {
            "geometry": {
                "coordinates": [
                    2.329008926235403,
                    48.84221841361352
                ],
                "type": "Point"
            },
            "properties": {
                "id": "1692-2502",
                "line": "4",
                "marker-color": "#v",
                "marker-symbol": "rail-metro",
                "name": "Vavin"
            },
            "type": "Feature"
        },
        {
            "geometry": {
                "coordinates": [
                    2.330754192086216,
                    48.838964280710556
                ],
                "type": "Point"
            },
            "properties": {
                "id": "1645-2525",
                "line": "4",
                "marker-color": "#v",
                "marker-symbol": "rail-metro",
                "name": "Raspail"
            },
            "type": "Feature"
        },
        {
            "geometry": {
                "coordinates": [
                    2.331740130985349,
                    48.833450858213496
                ],
                "type": "Point"
            },
            "properties": {
                "id": "1996-2185",
                "line": "4",
                "marker-color": "#v",
                "marker-symbol": "rail-metro",
                "name": "Denfert-Rochereau"
            },
            "type": "Feature"
        },
        {
            "geometry": {
                "coordinates": [
                    2.329705012620185,
                    48.831112660375325
                ],
                "type": "Point"
            },
            "properties": {
                "id": "1828-2367",
                "line": "4",
                "marker-color": "#v",
                "marker-symbol": "rail-metro",
                "name": "Mouton-Duvernet"
            },
            "type": "Feature"
        },
        {
            "geometry": {
                "coordinates": [
                    2.327164649607824,
                    48.82818847631351
                ],
                "type": "Point"
            },
            "properties": {
                "id": "2040-2159",
                "line": "4",
                "marker-color": "#v",
                "marker-symbol": "rail-metro",
                "name": "Alesia"
            },
            "type": "Feature"
        },
        {
            "geometry": {
                "coordinates": [
                    2.325575636212245,
                    48.82341162898738
                ],
                "type": "Point"
            },
            "properties": {
                "id": "1735-2413",
                "line": "4",
                "marker-color": "#v",
                "marker-symbol": "rail-metro",
                "name": "Porte d'Orleans (General Leclerc)"
            },
            "type": "Feature"
        },
        {
            "geometry": {
                "coordinates": [
                    2.319740313298555,
                    48.818676409912605
                ],
                "type": "Point"
            },
            "properties": {
                "id": "4028973-4028974",
                "line": "4",
                "marker-color": "#v",
                "marker-symbol": "rail-metro",
                "name": "Mairie de Montrouge"
            },
            "type": "Feature"
        },
        {
            "geometry": {
                "coordinates": [
                    2.449189904488852,
                    48.90637477027001
                ],
                "type": "Point"
            },
            "properties": {
                "id": "2089-2550",
                "line": "5",
                "marker-color": "#FF5A00",
                "marker-symbol": "rail-metro",
                "name": "Bobigny-Pablo-Picasso"
            },
            "type": "Feature"
        },
        {
            "geometry": {
                "coordinates": [
                    2.425326888802467,
                    48.89545467304617
                ],
                "type": "Point"
            },
            "properties": {
                "id": "2072-2121",
                "line": "5",
                "marker-color": "#FF5A00",
                "marker-symbol": "rail-metro",
                "name": "Bobigny-Pantin (Raymond Queneau)"
            },
            "type": "Feature"
        },
        {
            "geometry": {
                "coordinates": [
                    2.41331313951059,
                    48.89325758997389
                ],
                "type": "Point"
            },
            "properties": {
                "id": "1932-2257",
                "line": "5",
                "marker-color": "#FF5A00",
                "marker-symbol": "rail-metro",
                "name": "Eglise de Pantin"
            },
            "type": "Feature"
        },
        {
            "geometry": {
                "coordinates": [
                    2.402352142536798,
                    48.89122859319665
                ],
                "type": "Point"
            },
            "properties": {
                "id": "1891-2287",
                "line": "5",
                "marker-color": "#FF5A00",
                "marker-symbol": "rail-metro",
                "name": "Hoche"
            },
            "type": "Feature"
        },
        {
            "geometry": {
                "coordinates": [
                    2.392113697756401,
                    48.88850368786184
                ],
                "type": "Point"
            },
            "properties": {
                "id": "1746-2424",
                "line": "5",
                "marker-color": "#FF5A00",
                "marker-symbol": "rail-metro",
                "name": "Porte de Pantin"
            },
            "type": "Feature"
        },
        {
            "geometry": {
                "coordinates": [
                    2.386960017135177,
                    48.887134869076554
                ],
                "type": "Point"
            },
            "properties": {
                "id": "1772-2382",
                "line": "5",
                "marker-color": "#FF5A00",
                "marker-symbol": "rail-metro",
                "name": "Ourcq"
            },
            "type": "Feature"
        },
        {
            "geometry": {
                "coordinates": [
                    2.379663077480466,
                    48.8852161820946
                ],
                "type": "Point"
            },
            "properties": {
                "id": "1922-2247",
                "line": "5",
                "marker-color": "#FF5A00",
                "marker-symbol": "rail-metro",
                "name": "Laumiere"
            },
            "type": "Feature"
        },
        {
            "geometry": {
                "coordinates": [
                    2.370262126660263,
                    48.881498595910074
                ],
                "type": "Point"
            },
            "properties": {
                "id": "1901-2297",
                "line": "5",
                "marker-color": "#FF5A00",
                "marker-symbol": "rail-metro",
                "name": "Jaures"
            },
            "type": "Feature"
        },
        {
            "geometry": {
                "coordinates": [
                    2.36939198436133,
                    48.884385145353036
                ],
                "type": "Point"
            },
            "properties": {
                "id": "1675-2485",
                "line": "5",
                "marker-color": "#FF5A00",
                "marker-symbol": "rail-metro",
                "name": "Stalingrad"
            },
            "type": "Feature"
        },
        {
            "geometry": {
                "coordinates": [
                    2.357459346588717,
                    48.87985014251205
                ],
                "type": "Point"
            },
            "properties": {
                "id": "1958-2213",
                "line": "5",
                "marker-color": "#FF5A00",
                "marker-symbol": "rail-metro",
                "name": "Gare du Nord"
            },
            "type": "Feature"
        },
        {
            "geometry": {
                "coordinates": [
                    2.357880771925327,
                    48.8759910648072
                ],
                "type": "Point"
            },
            "properties": {
                "id": "2076-2125",
                "line": "5",
                "marker-color": "#FF5A00",
                "marker-symbol": "rail-metro",
                "name": "Gare de l'Est (Verdun)"
            },
            "type": "Feature"
        },
        {
            "geometry": {
                "coordinates": [
                    2.361027466917372,
                    48.87080998002082
                ],
                "type": "Point"
            },
            "properties": {
                "id": "1898-2294",
                "line": "5",
                "marker-color": "#FF5A00",
                "marker-symbol": "rail-metro",
                "name": "Jacques-Bonsergent"
            },
            "type": "Feature"
        },
        {
            "geometry": {
                "coordinates": [
                    2.363826143977408,
                    48.86750342377884
                ],
                "type": "Point"
            },
            "properties": {
                "id": "1767-2377",
                "line": "5",
                "marker-color": "#FF5A00",
                "marker-symbol": "rail-metro",
                "name": "Republique"
            },
            "type": "Feature"
        },
        {
            "geometry": {
                "coordinates": [
                    2.368410025658025,
                    48.864657879612494
                ],
                "type": "Point"
            },
            "properties": {
                "id": "1843-2310",
                "line": "5",
                "marker-color": "#FF5A00",
                "marker-symbol": "rail-metro",
                "name": "Oberkampf"
            },
            "type": "Feature"
        },
        {
            "geometry": {
                "coordinates": [
                    2.371913980089996,
                    48.85987362437059
                ],
                "type": "Point"
            },
            "properties": {
                "id": "1700-2445",
                "line": "5",
                "marker-color": "#FF5A00",
                "marker-symbol": "rail-metro",
                "name": "Richard-Lenoir"
            },
            "type": "Feature"
        },
        {
            "geometry": {
                "coordinates": [
                    2.370209338414258,
                    48.85614070934924
                ],
                "type": "Point"
            },
            "properties": {
                "id": "2008-2164",
                "line": "5",
                "marker-color": "#FF5A00",
                "marker-symbol": "rail-metro",
                "name": "Breguet-Sabin"
            },
            "type": "Feature"
        },
        {
            "geometry": {
                "coordinates": [
                    2.369320584925386,
                    48.852479422836296
                ],
                "type": "Point"
            },
            "properties": {
                "id": "2063-2112",
                "line": "5",
                "marker-color": "#FF5A00",
                "marker-symbol": "rail-metro",
                "name": "Bastille"
            },
            "type": "Feature"
        },
        {
            "geometry": {
                "coordinates": [
                    2.365873469406567,
                    48.8465154041934
                ],
                "type": "Point"
            },
            "properties": {
                "id": "1759-2437",
                "line": "5",
                "marker-color": "#FF5A00",
                "marker-symbol": "rail-metro",
                "name": "Quai de la Rapee"
            },
            "type": "Feature"
        },
        {
            "geometry": {
                "coordinates": [
                    2.365184812004335,
                    48.84243679702547
                ],
                "type": "Point"
            },
            "properties": {
                "id": "1951-2206",
                "line": "5",
                "marker-color": "#FF5A00",
                "marker-symbol": "rail-metro",
                "name": "Gare d'Austerlitz"
            },
            "type": "Feature"
        },
        {
            "geometry": {
                "coordinates": [
                    2.360967167698855,
                    48.83842729696758
                ],
                "type": "Point"
            },
            "properties": {
                "id": "1641-2521",
                "line": "5",
                "marker-color": "#FF5A00",
                "marker-symbol": "rail-metro",
                "name": "Saint-Marcel"
            },
            "type": "Feature"
        },
        {
            "geometry": {
                "coordinates": [
                    2.358823489097101,
                    48.83549535538261
                ],
                "type": "Point"
            },
            "properties": {
                "id": "2017-2136",
                "line": "5",
                "marker-color": "#FF5A00",
                "marker-symbol": "rail-metro",
                "name": "Campo-Formio"
            },
            "type": "Feature"
        },
        {
            "geometry": {
                "coordinates": [
                    2.35558027407791,
                    48.83097267298836
                ],
                "type": "Point"
            },
            "properties": {
                "id": "1793-2403",
                "line": "5",
                "marker-color": "#FF5A00",
                "marker-symbol": "rail-metro",
                "name": "Place d'Italie"
            },
            "type": "Feature"
        },
        {
            "geometry": {
                "coordinates": [
                    2.39506230542588,
                    48.84847428597437
                ],
                "type": "Point"
            },
            "properties": {
                "id": "1834-2339",
                "line": "6",
                "marker-color": "#82DC73",
                "marker-symbol": "rail-metro",
                "name": "Nation"
            },
            "type": "Feature"
        },
        {
            "geometry": {
                "coordinates": [
                    2.401289019827348,
                    48.8450615799449
                ],
                "type": "Point"
            },
            "properties": {
                "id": "1789-2399",
                "line": "6",
                "marker-color": "#82DC73",
                "marker-symbol": "rail-metro",
                "name": "Picpus"
            },
            "type": "Feature"
        },
        {
            "geometry": {
                "coordinates": [
                    2.400918538121599,
                    48.84133825093756
                ],
                "type": "Point"
            },
            "properties": {
                "id": "2065-2114",
                "line": "6",
                "marker-color": "#82DC73",
                "marker-symbol": "rail-metro",
                "name": "Bel-Air"
            },
            "type": "Feature"
        },
        {
            "geometry": {
                "coordinates": [
                    2.395703289436394,
                    48.839549645568674
                ],
                "type": "Point"
            },
            "properties": {
                "id": "2081-2094",
                "line": "6",
                "marker-color": "#82DC73",
                "marker-symbol": "rail-metro",
                "name": "Daumesnil (Felix Eboue)"
            },
            "type": "Feature"
        },
        {
            "geometry": {
                "coordinates": [
                    2.389620011336723,
                    48.839041143700065
                ],
                "type": "Point"
            },
            "properties": {
                "id": "2082-2543",
                "line": "6",
                "marker-color": "#82DC73",
                "marker-symbol": "rail-metro",
                "name": "Dugommier"
            },
            "type": "Feature"
        },
        {
            "geometry": {
                "coordinates": [
                    2.379554011203435,
                    48.840001389548114
                ],
                "type": "Point"
            },
            "properties": {
                "id": "2068-2117",
                "line": "6",
                "marker-color": "#82DC73",
                "marker-symbol": "rail-metro",
                "name": "Bercy"
            },
            "type": "Feature"
        },
        {
            "geometry": {
                "coordinates": [
                    2.372825721828786,
                    48.837045119244316
                ],
                "type": "Point"
            },
            "properties": {
                "id": "1644-2524",
                "line": "6",
                "marker-color": "#82DC73",
                "marker-symbol": "rail-metro",
                "name": "Quai de la Gare"
            },
            "type": "Feature"
        },
        {
            "geometry": {
                "coordinates": [
                    2.368126329061812,
                    48.83494772234805
                ],
                "type": "Point"
            },
            "properties": {
                "id": "1974-2229",
                "line": "6",
                "marker-color": "#82DC73",
                "marker-symbol": "rail-metro",
                "name": "Chevaleret"
            },
            "type": "Feature"
        },
        {
            "geometry": {
                "coordinates": [
                    2.362856399519012,
                    48.833216719709846
                ],
                "type": "Point"
            },
            "properties": {
                "id": "1836-2303",
                "line": "6",
                "marker-color": "#82DC73",
                "marker-symbol": "rail-metro",
                "name": "Nationale"
            },
            "type": "Feature"
        },
        {
            "geometry": {
                "coordinates": [
                    2.35558027407791,
                    48.83097267298836
                ],
                "type": "Point"
            },
            "properties": {
                "id": "1794-2404",
                "line": "6",
                "marker-color": "#82DC73",
                "marker-symbol": "rail-metro",
                "name": "Place d'Italie"
            },
            "type": "Feature"
        },
        {
            "geometry": {
                "coordinates": [
                    2.350414872010464,
                    48.82979051369296
                ],
                "type": "Point"
            },
            "properties": {
                "id": "1987-2177",
                "line": "6",
                "marker-color": "#82DC73",
                "marker-symbol": "rail-metro",
                "name": "Corvisart"
            },
            "type": "Feature"
        },
        {
            "geometry": {
                "coordinates": [
                    2.343511657749776,
                    48.831129548026645
                ],
                "type": "Point"
            },
            "properties": {
                "id": "1962-2217",
                "line": "6",
                "marker-color": "#82DC73",
                "marker-symbol": "rail-metro",
                "name": "Glaciere"
            },
            "type": "Feature"
        },
        {
            "geometry": {
                "coordinates": [
                    2.337135190607983,
                    48.832900816544466
                ],
                "type": "Point"
            },
            "properties": {
                "id": "1640-2520",
                "line": "6",
                "marker-color": "#82DC73",
                "marker-symbol": "rail-metro",
                "name": "Saint-Jacques"
            },
            "type": "Feature"
        },
        {
            "geometry": {
                "coordinates": [
                    2.331740130985349,
                    48.833450858213496
                ],
                "type": "Point"
            },
            "properties": {
                "id": "1997-2186",
                "line": "6",
                "marker-color": "#82DC73",
                "marker-symbol": "rail-metro",
                "name": "Denfert-Rochereau"
            },
            "type": "Feature"
        },
        {
            "geometry": {
                "coordinates": [
                    2.330754192086216,
                    48.838964280710556
                ],
                "type": "Point"
            },
            "properties": {
                "id": "1763-2409",
                "line": "6",
                "marker-color": "#82DC73",
                "marker-symbol": "rail-metro",
                "name": "Raspail"
            },
            "type": "Feature"
        },
        {
            "geometry": {
                "coordinates": [
                    2.326384610792847,
                    48.840663229299565
                ],
                "type": "Point"
            },
            "properties": {
                "id": "1930-2255",
                "line": "6",
                "marker-color": "#82DC73",
                "marker-symbol": "rail-metro",
                "name": "Edgar-Quinet"
            },
            "type": "Feature"
        },
        {
            "geometry": {
                "coordinates": [
                    2.324397012397453,
                    48.84378130483655
                ],
                "type": "Point"
            },
            "properties": {
                "id": "1825-2364",
                "line": "6",
                "marker-color": "#82DC73",
                "marker-symbol": "rail-metro",
                "name": "Montparnasse-Bienvenue"
            },
            "type": "Feature"
        },
        {
            "geometry": {
                "coordinates": [
                    2.312447513065986,
                    48.84287127500633
                ],
                "type": "Point"
            },
            "properties": {
                "id": "1781-2391",
                "line": "6",
                "marker-color": "#82DC73",
                "marker-symbol": "rail-metro",
                "name": "Pasteur"
            },
            "type": "Feature"
        },
        {
            "geometry": {
                "coordinates": [
                    2.309531490098375,
                    48.84562696673932
                ],
                "type": "Point"
            },
            "properties": {
                "id": "1665-2475",
                "line": "6",
                "marker-color": "#82DC73",
                "marker-symbol": "rail-metro",
                "name": "Sevres-Lecourbe"
            },
            "type": "Feature"
        },
        {
            "geometry": {
                "coordinates": [
                    2.30296829919196,
                    48.84750708110547
                ],
                "type": "Point"
            },
            "properties": {
                "id": "2016-2135",
                "line": "6",
                "marker-color": "#82DC73",
                "marker-symbol": "rail-metro",
                "name": "Cambronne"
            },
            "type": "Feature"
        },
        {
            "geometry": {
                "coordinates": [
                    2.298930911748061,
                    48.84874166571782
                ],
                "type": "Point"
            },
            "properties": {
                "id": "1657-2537",
                "line": "6",
                "marker-color": "#82DC73",
                "marker-symbol": "rail-metro",
                "name": "La Motte-Picquet-Grenelle"
            },
            "type": "Feature"
        },
        {
            "geometry": {
                "coordinates": [
                    2.293612439913189,
                    48.85043454902951
                ],
                "type": "Point"
            },
            "properties": {
                "id": "1926-2251",
                "line": "6",
                "marker-color": "#82DC73",
                "marker-symbol": "rail-metro",
                "name": "Dupleix"
            },
            "type": "Feature"
        },
        {
            "geometry": {
                "coordinates": [
                    2.289334532766542,
                    48.85394260711305
                ],
                "type": "Point"
            },
            "properties": {
                "id": "2069-2118",
                "line": "6",
                "marker-color": "#82DC73",
                "marker-symbol": "rail-metro",
                "name": "Bir-Hakeim (Grenelle)"
            },
            "type": "Feature"
        },
        {
            "geometry": {
                "coordinates": [
                    2.285812444134081,
                    48.857448690975104
                ],
                "type": "Point"
            },
            "properties": {
                "id": "1780-2390",
                "line": "6",
                "marker-color": "#82DC73",
                "marker-symbol": "rail-metro",
                "name": "Passy"
            },
            "type": "Feature"
        },
        {
            "geometry": {
                "coordinates": [
                    2.286243170691258,
                    48.86306502022607
                ],
                "type": "Point"
            },
            "properties": {
                "id": "1687-2497",
                "line": "6",
                "marker-color": "#82DC73",
                "marker-symbol": "rail-metro",
                "name": "Trocadero"
            },
            "type": "Feature"
        },
        {
            "geometry": {
                "coordinates": [
                    2.290058834931356,
                    48.86698311035682
                ],
                "type": "Point"
            },
            "properties": {
                "id": "2073-2122",
                "line": "6",
                "marker-color": "#82DC73",
                "marker-symbol": "rail-metro",
                "name": "Boissiere"
            },
            "type": "Feature"
        },
        {
            "geometry": {
                "coordinates": [
                    2.293524290341821,
                    48.87164976914353
                ],
                "type": "Point"
            },
            "properties": {
                "id": "1909-2234",
                "line": "6",
                "marker-color": "#82DC73",
                "marker-symbol": "rail-metro",
                "name": "Kleber"
            },
            "type": "Feature"
        },
        {
            "geometry": {
                "coordinates": [
                    2.295567369745454,
                    48.874613927042155
                ],
                "type": "Point"
            },
            "properties": {
                "id": "2030-2149",
                "line": "6",
                "marker-color": "#82DC73",
                "marker-symbol": "rail-metro",
                "name": "Charles de Gaulle-Etoile"
            },
            "type": "Feature"
        },
        {
            "geometry": {
                "coordinates": [
                    2.410598613730138,
                    48.920785969948675
                ],
                "type": "Point"
            },
            "properties": {
                "id": "1911-2236",
                "line": "7",
                "marker-color": "#FF82B4",
                "marker-symbol": "rail-metro",
                "name": "La Courneuve-8-Mai-1945"
            },
            "type": "Feature"
        },
        {
            "geometry": {
                "coordinates": [
                    2.404409087427758,
                    48.91494975637021
                ],
                "type": "Point"
            },
            "properties": {
                "id": "1944-2199",
                "line": "7",
                "marker-color": "#FF82B4",
                "marker-symbol": "rail-metro",
                "name": "Fort d'Aubervilliers"
            },
            "type": "Feature"
        },
        {
            "geometry": {
                "coordinates": [
                    2.392287059642348,
                    48.903759930170864
                ],
                "type": "Point"
            },
            "properties": {
                "id": "2055-2104",
                "line": "7",
                "marker-color": "#FF82B4",
                "marker-symbol": "rail-metro",
                "name": "Aubervilliers Pantin (4 Chemins)"
            },
            "type": "Feature"
        },
        {
            "geometry": {
                "coordinates": [
                    2.385508387679288,
                    48.89738989068259
                ],
                "type": "Point"
            },
            "properties": {
                "id": "1744-2422",
                "line": "7",
                "marker-color": "#FF82B4",
                "marker-symbol": "rail-metro",
                "name": "Porte de la Villette"
            },
            "type": "Feature"
        },
        {
            "geometry": {
                "coordinates": [
                    2.382522343415364,
                    48.89483646840174
                ],
                "type": "Point"
            },
            "properties": {
                "id": "1985-2175",
                "line": "7",
                "marker-color": "#FF82B4",
                "marker-symbol": "rail-metro",
                "name": "Corentin-Cariou"
            },
            "type": "Feature"
        },
        {
            "geometry": {
                "coordinates": [
                    2.377315755595574,
                    48.89078896952844
                ],
                "type": "Point"
            },
            "properties": {
                "id": "2080-2093",
                "line": "7",
                "marker-color": "#FF82B4",
                "marker-symbol": "rail-metro",
                "name": "Crimee"
            },
            "type": "Feature"
        },
        {
            "geometry": {
                "coordinates": [
                    2.374204012035863,
                    48.88826761697049
                ],
                "type": "Point"
            },
            "properties": {
                "id": "1703-2448",
                "line": "7",
                "marker-color": "#FF82B4",
                "marker-symbol": "rail-metro",
                "name": "Riquet"
            },
            "type": "Feature"
        },
        {
            "geometry": {
                "coordinates": [
                    2.36939198436133,
                    48.884385145353036
                ],
                "type": "Point"
            },
            "properties": {
                "id": "1676-2486",
                "line": "7",
                "marker-color": "#FF82B4",
                "marker-symbol": "rail-metro",
                "name": "Stalingrad"
            },
            "type": "Feature"
        },
        {
            "geometry": {
                "coordinates": [
                    2.365544319172476,
                    48.88128581185832
                ],
                "type": "Point"
            },
            "properties": {
                "id": "1860-2327",
                "line": "7",
                "marker-color": "#FF82B4",
                "marker-symbol": "rail-metro",
                "name": "Louis Blanc"
            },
            "type": "Feature"
        },
        {
            "geometry": {
                "coordinates": [
                    2.362160071922951,
                    48.878565625799595
                ],
                "type": "Point"
            },
            "properties": {
                "id": "2085-2546",
                "line": "7",
                "marker-color": "#FF82B4",
                "marker-symbol": "rail-metro",
                "name": "Chateau Landon"
            },
            "type": "Feature"
        },
        {
            "geometry": {
                "coordinates": [
                    2.357880771925327,
                    48.8759910648072
                ],
                "type": "Point"
            },
            "properties": {
                "id": "1954-2209",
                "line": "7",
                "marker-color": "#FF82B4",
                "marker-symbol": "rail-metro",
                "name": "Gare de l'Est (Verdun)"
            },
            "type": "Feature"
        },
        {
            "geometry": {
                "coordinates": [
                    2.349293902476005,
                    48.87723631913661
                ],
                "type": "Point"
            },
            "properties": {
                "id": "1800-2373",
                "line": "7",
                "marker-color": "#FF82B4",
                "marker-symbol": "rail-metro",
                "name": "Poissonniere"
            },
            "type": "Feature"
        },
        {
            "geometry": {
                "coordinates": [
                    2.344126030464426,
                    48.87589068189371
                ],
                "type": "Point"
            },
            "properties": {
                "id": "2015-2134",
                "line": "7",
                "marker-color": "#FF82B4",
                "marker-symbol": "rail-metro",
                "name": "Cadet"
            },
            "type": "Feature"
        },
        {
            "geometry": {
                "coordinates": [
                    2.34019988438517,
                    48.87487434337737
                ],
                "type": "Point"
            },
            "properties": {
                "id": "1849-2316",
                "line": "7",
                "marker-color": "#FF82B4",
                "marker-symbol": "rail-metro",
                "name": "Le Peletier"
            },
            "type": "Feature"
        },
        {
            "geometry": {
                "coordinates": [
                    2.333451218577799,
                    48.87310927430917
                ],
                "type": "Point"
            },
            "properties": {
                "id": "1971-2226",
                "line": "7",
                "marker-color": "#FF82B4",
                "marker-symbol": "rail-metro",
                "name": "Chaussee d'Antin (La Fayette)"
            },
            "type": "Feature"
        },
        {
            "geometry": {
                "coordinates": [
                    2.331989522683248,
                    48.8709917839485
                ],
                "type": "Point"
            },
            "properties": {
                "id": "1847-2314",
                "line": "7",
                "marker-color": "#FF82B4",
                "marker-symbol": "rail-metro",
                "name": "Opera"
            },
            "type": "Feature"
        },
        {
            "geometry": {
                "coordinates": [
                    2.33418954196825,
                    48.86590673959416
                ],
                "type": "Point"
            },
            "properties": {
                "id": "1757-2435",
                "line": "7",
                "marker-color": "#FF82B4",
                "marker-symbol": "rail-metro",
                "name": "Pyramides"
            },
            "type": "Feature"
        },
        {
            "geometry": {
                "coordinates": [
                    2.336878397596706,
                    48.862829672789964
                ],
                "type": "Point"
            },
            "properties": {
                "id": "1774-2384",
                "line": "7",
                "marker-color": "#FF82B4",
                "marker-symbol": "rail-metro",
                "name": "Palais-Royal (Musee du Louvre)"
            },
            "type": "Feature"
        },
        {
            "geometry": {
                "coordinates": [
                    2.342232759368107,
                    48.85855382636668
                ],
                "type": "Point"
            },
            "properties": {
                "id": "1806-2345",
                "line": "7",
                "marker-color": "#FF82B4",
                "marker-symbol": "rail-metro",
                "name": "Pont Neuf"
            },
            "type": "Feature"
        },
        {
            "geometry": {
                "coordinates": [
                    2.347305852747763,
                    48.85879919807379
                ],
                "type": "Point"
            },
            "properties": {
                "id": "1966-2221",
                "line": "7",
                "marker-color": "#FF82B4",
                "marker-symbol": "rail-metro",
                "name": "Chatelet"
            },
            "type": "Feature"
        },
        {
            "geometry": {
                "coordinates": [
                    2.357162571618337,
                    48.853575472503586
                ],
                "type": "Point"
            },
            "properties": {
                "id": "1805-2344",
                "line": "7",
                "marker-color": "#FF82B4",
                "marker-symbol": "rail-metro",
                "name": "Pont Marie (Cite des Arts)"
            },
            "type": "Feature"
        },
        {
            "geometry": {
                "coordinates": [
                    2.36198514100077,
                    48.85123768038418
                ],
                "type": "Point"
            },
            "properties": {
                "id": "1681-2491",
                "line": "7",
                "marker-color": "#FF82B4",
                "marker-symbol": "rail-metro",
                "name": "Sully-Morland"
            },
            "type": "Feature"
        },
        {
            "geometry": {
                "coordinates": [
                    2.35505026306104,
                    48.845950666642075
                ],
                "type": "Point"
            },
            "properties": {
                "id": "1907-2232",
                "line": "7",
                "marker-color": "#FF82B4",
                "marker-symbol": "rail-metro",
                "name": "Jussieu"
            },
            "type": "Feature"
        },
        {
            "geometry": {
                "coordinates": [
                    2.352224728183084,
                    48.84286683068266
                ],
                "type": "Point"
            },
            "properties": {
                "id": "1649-2529",
                "line": "7",
                "marker-color": "#FF82B4",
                "marker-symbol": "rail-metro",
                "name": "Place Monge (Jardin des Plantes)"
            },
            "type": "Feature"
        },
        {
            "geometry": {
                "coordinates": [
                    2.351739487166927,
                    48.8404866526412
                ],
                "type": "Point"
            },
            "properties": {
                "id": "2020-2139",
                "line": "7",
                "marker-color": "#FF82B4",
                "marker-symbol": "rail-metro",
                "name": "Censier-Daubenton"
            },
            "type": "Feature"
        },
        {
            "geometry": {
                "coordinates": [
                    2.352588925635323,
                    48.83586348417992
                ],
                "type": "Point"
            },
            "properties": {
                "id": "1854-2321",
                "line": "7",
                "marker-color": "#FF82B4",
                "marker-symbol": "rail-metro",
                "name": "Les Gobelins"
            },
            "type": "Feature"
        },
        {
            "geometry": {
                "coordinates": [
                    2.35558027407791,
                    48.83097267298836
                ],
                "type": "Point"
            },
            "properties": {
                "id": "1648-2528",
                "line": "7",
                "marker-color": "#FF82B4",
                "marker-symbol": "rail-metro",
                "name": "Place d'Italie"
            },
            "type": "Feature"
        },
        {
            "geometry": {
                "coordinates": [
                    2.357245650758686,
                    48.826426010875664
                ],
                "type": "Point"
            },
            "properties": {
                "id": "1685-2495",
                "line": "7",
                "marker-color": "#FF82B4",
                "marker-symbol": "rail-metro",
                "name": "Tolbiac"
            },
            "type": "Feature"
        },
        {
            "geometry": {
                "coordinates": [
                    2.358473883854336,
                    48.8224378345855
                ],
                "type": "Point"
            },
            "properties": {
                "id": "1876-2272",
                "line": "7",
                "marker-color": "#FF82B4",
                "marker-symbol": "rail-metro",
                "name": "Maison Blanche"
            },
            "type": "Feature"
        },
        {
            "geometry": {
                "coordinates": [
                    2.359705216746021,
                    48.819223349609054
                ],
                "type": "Point"
            },
            "properties": {
                "id": "1808-2347",
                "line": "7",
                "marker-color": "#FF82B4",
                "marker-symbol": "rail-metro",
                "name": "Porte d'Italie"
            },
            "type": "Feature"
        },
        {
            "geometry": {
                "coordinates": [
                    2.364531951747296,
                    48.81987622104988
                ],
                "type": "Point"
            },
            "properties": {
                "id": "1740-2418",
                "line": "7",
                "marker-color": "#FF82B4",
                "marker-symbol": "rail-metro",
                "name": "Porte de Choisy"
            },
            "type": "Feature"
        },
        {
            "geometry": {
                "coordinates": [
                    2.369290587346029,
                    48.82135578381408
                ],
                "type": "Point"
            },
            "properties": {
                "id": "1734-2412",
                "line": "7",
                "marker-color": "#FF82B4",
                "marker-symbol": "rail-metro",
                "name": "Porte d'Ivry"
            },
            "type": "Feature"
        },
        {
            "geometry": {
                "coordinates": [
                    2.377267200151936,
                    48.81593076304922
                ],
                "type": "Point"
            },
            "properties": {
                "id": "1790-2400",
                "line": "7",
                "marker-color": "#FF82B4",
                "marker-symbol": "rail-metro",
                "name": "Pierre et Marie Curie"
            },
            "type": "Feature"
        },
        {
            "geometry": {
                "coordinates": [
                    2.383551479649113,
                    48.81109919771153
                ],
                "type": "Point"
            },
            "properties": {
                "id": "1871-2301",
                "line": "7",
                "marker-color": "#FF82B4",
                "marker-symbol": "rail-metro",
                "name": "Mairie d'Ivry"
            },
            "type": "Feature"
        },
        {
            "geometry": {
                "coordinates": [
                    2.362263387127349,
                    48.81012995727393
                ],
                "type": "Point"
            },
            "properties": {
                "id": "1925-2250",
                "line": "7",
                "marker-color": "#FF82B4",
                "marker-symbol": "rail-metro",
                "name": "Le Kremlin-Bicetre"
            },
            "type": "Feature"
        },
        {
            "geometry": {
                "coordinates": [
                    2.363953196602166,
                    48.804688120911365
                ],
                "type": "Point"
            },
            "properties": {
                "id": "1639-2519",
                "line": "7",
                "marker-color": "#FF82B4",
                "marker-symbol": "rail-metro",
                "name": "Villejuif-Leo Lagrange"
            },
            "type": "Feature"
        },
        {
            "geometry": {
                "coordinates": [
                    2.36826954143277,
                    48.796483082759046
                ],
                "type": "Point"
            },
            "properties": {
                "id": "1696-2506",
                "line": "7",
                "marker-color": "#FF82B4",
                "marker-symbol": "rail-metro",
                "name": "Villejuif-Paul Vaillant Couturier (Hopital Paul Brousse)"
            },
            "type": "Feature"
        },
        {
            "geometry": {
                "coordinates": [
                    2.367804106975457,
                    48.78756279205349
                ],
                "type": "Point"
            },
            "properties": {
                "id": "1695-2505",
                "line": "7",
                "marker-color": "#FF82B4",
                "marker-symbol": "rail-metro",
                "name": "Villejuif-Louis Aragon"
            },
            "type": "Feature"
        },
        {
            "geometry": {
                "coordinates": [
                    2.398946662455969,
                    48.879995794367346
                ],
                "type": "Point"
            },
            "properties": {
                "id": "1756-2434",
                "line": "7b",
                "marker-color": "#82DC73",
                "marker-symbol": "rail-metro",
                "name": "Pre-Saint-Gervais"
            },
            "type": "Feature"
        },
        {
            "geometry": {
                "coordinates": [
                    2.393445456490355,
                    48.881931998728206
                ],
                "type": "Point"
            },
            "properties": {
                "id": "1635-",
                "line": "7b",
                "marker-color": "#82DC73",
                "marker-symbol": "rail-metro",
                "name": "Danube"
            },
            "type": "Feature"
        },
        {
            "geometry": {
                "coordinates": [
                    2.389115807376888,
                    48.87948177191293
                ],
                "type": "Point"
            },
            "properties": {
                "id": "2002-2191",
                "line": "7b",
                "marker-color": "#82DC73",
                "marker-symbol": "rail-metro",
                "name": "Botzaris"
            },
            "type": "Feature"
        },
        {
            "geometry": {
                "coordinates": [
                    2.381614511939643,
                    48.87851411312453
                ],
                "type": "Point"
            },
            "properties": {
                "id": "2013-2132",
                "line": "7b",
                "marker-color": "#82DC73",
                "marker-symbol": "rail-metro",
                "name": "Buttes-Chaumont"
            },
            "type": "Feature"
        },
        {
            "geometry": {
                "coordinates": [
                    2.374147153839052,
                    48.88082126137613
                ],
                "type": "Point"
            },
            "properties": {
                "id": "2075-2124",
                "line": "7b",
                "marker-color": "#82DC73",
                "marker-symbol": "rail-metro",
                "name": "Bolivar"
            },
            "type": "Feature"
        },
        {
            "geometry": {
                "coordinates": [
                    2.370262126660263,
                    48.881498595910074
                ],
                "type": "Point"
            },
            "properties": {
                "id": "1902-2298",
                "line": "7b",
                "marker-color": "#82DC73",
                "marker-symbol": "rail-metro",
                "name": "Jaures"
            },
            "type": "Feature"
        },
        {
            "geometry": {
                "coordinates": [
                    2.365544319172476,
                    48.88128581185832
                ],
                "type": "Point"
            },
            "properties": {
                "id": "1861-2328",
                "line": "7b",
                "marker-color": "#82DC73",
                "marker-symbol": "rail-metro",
                "name": "Louis Blanc"
            },
            "type": "Feature"
        },
        {
            "geometry": {
                "coordinates": [
                    2.392983964817394,
                    48.876949848110215
                ],
                "type": "Point"
            },
            "properties": {
                "id": "-1797",
                "line": "7b",
                "marker-color": "#82DC73",
                "marker-symbol": "rail-metro",
                "name": "Place des Fetes"
            },
            "type": "Feature"
        },
        {
            "geometry": {
                "coordinates": [
                    2.278161671278975,
                    48.83593087919467
                ],
                "type": "Point"
            },
            "properties": {
                "id": "3343334-3343335",
                "line": "8",
                "marker-color": "#D282BE",
                "marker-symbol": "rail-metro",
                "name": "Balard"
            },
            "type": "Feature"
        },
        {
            "geometry": {
                "coordinates": [
                    2.282700027239131,
                    48.838960939372015
                ],
                "type": "Point"
            },
            "properties": {
                "id": "3343336-3343337",
                "line": "8",
                "marker-color": "#D282BE",
                "marker-symbol": "rail-metro",
                "name": "Lourmel"
            },